{"name":"MeetMoi","founded_year":2007,"homepage_url":"http:\/\/www.meetmoi.com","category_code":"social","description":"Mobile Dating","total_money_raised":"$5.58M","city":"New York City","country_code":"USA","coordinates":{"type":"Point","coordinates":[-73.985506,40.757929]}}
{"name":"Mahalo","founded_year":2007,"homepage_url":"http:\/\/mahalo.com","category_code":"web","description":"Life long learning content","total_money_raised":"$21M","city":"Culver City","country_code":"USA","coordinates":{"type":"Point","coordinates":[-118.487267,34.017606]}}
{"name":"AdaptiveBlue","founded_year":2007,"homepage_url":"http:\/\/www.getglue.com","category_code":"games_video","description":"","total_money_raised":"$24M","city":"NYC","country_code":"USA","coordinates":{"type":"Point","coordinates":[-74.3372,40.801358]}}
{"name":"Livestream","founded_year":2007,"homepage_url":"http:\/\/www.livestream.com","category_code":"games_video","description":"Live streaming platform and website","total_money_raised":"$14.7M","city":"New York","country_code":"USA","coordinates":{"type":"Point","coordinates":[-73.995625,40.726155]}}
{"name":"Ustream","founded_year":2007,"homepage_url":"http:\/\/www.ustream.tv","category_code":"games_video","description":"Live Social Video Community","total_money_raised":"$60.1M","city":"San Francisco","country_code":"USA","coordinates":{"type":"Point","coordinates":[-122.07948,37.392936]}}
{"name":"SodaHead","founded_year":2007,"homepage_url":"http:\/\/sodahead.com","category_code":"web","description":"Online Community and Discussion","total_money_raised":"$12.7M","city":"Encino","country_code":"USA","coordinates":{"type":"Point","coordinates":[-119.306607,37.269175]}}
{"name":"Funny Or Die","founded_year":2007,"homepage_url":"http:\/\/funnyordie.com","category_code":"games_video","description":"comedy video website","total_money_raised":"$18M","city":"San Mateo","country_code":"USA","coordinates":{"type":"Point","coordinates":[-122.137444,37.421621]}}
{"name":"Wakoopa","founded_year":2007,"homepage_url":"http:\/\/www.wakoopa.com","category_code":"web","description":"Social network for desktop software","total_money_raised":"$1M","city":"Amsterdam","country_code":"NLD","coordinates":{"type":"Point","coordinates":[4.8948623,52.3745228]}}
{"name":"TVtrip","founded_year":2007,"homepage_url":"http:\/\/www.TVtrip.com","category_code":"web","description":"Video guide for hotels","total_money_raised":"$13.8M","city":"Paris","country_code":"FRA","coordinates":{"type":"Point","coordinates":[2.350987,48.856667]}}
{"name":"Seesmic","founded_year":2007,"homepage_url":"http:\/\/seesmic.com","category_code":"web","description":"Social software applications","total_money_raised":"$16M","city":"San Francisco","country_code":"USA","coordinates":{"type":"Point","coordinates":[-122.419204,37.775196]}}
{"name":"GoingOn","founded_year":2008,"homepage_url":"http:\/\/www.goingon.com","category_code":"software","description":"Private Academic Networks","total_money_raised":"$8.5M","city":"San Francisco","country_code":"USA","coordinates":{"type":"Point","coordinates":[-122.392142,37.782263]}}
{"name":"Dropbox","founded_year":2007,"homepage_url":"http:\/\/www.dropbox.com","category_code":"software","description":"Always have your stuff, wherever you are","total_money_raised":"$257M","city":"San Francisco","country_code":"USA","coordinates":{"type":"Point","coordinates":[-122.4084994,37.7909427]}}
{"name":"Filtrbox","founded_year":2007,"homepage_url":"http:\/\/www.jivesoftware.com","category_code":"web","description":"social media monitoring & analytics","total_money_raised":"$1.92M","city":"Palo Alto","country_code":"USA","coordinates":{"type":"Point","coordinates":[-105.276843,40.010492]}}
{"name":"Yola","founded_year":2007,"homepage_url":"http:\/\/www.yola.com","category_code":"web","description":"Free Websites","total_money_raised":"$25M","city":"San Francisco","country_code":"USA","coordinates":{"type":"Point","coordinates":[-122.3954751,37.7911148]}}
{"name":"sezmi","founded_year":2007,"homepage_url":"http:\/\/www.sezmi.com","category_code":"games_video","description":"Entertianment services company","total_money_raised":"$78.6M","city":"Belmont","country_code":"USA","coordinates":{"type":"Point","coordinates":[-122.265869,37.524422]}}
{"name":"Docstoc","founded_year":2007,"homepage_url":"http:\/\/www.docstoc.com","category_code":"web","description":"The Online Resource for Small Businesses","total_money_raised":"$4M","city":"Santa Monica","country_code":"USA","coordinates":{"type":"Point","coordinates":[-118.495025,34.018275]}}
{"name":"Wonga","founded_year":2007,"homepage_url":"http:\/\/www.wonga.com","category_code":"web","description":"Online Provider of Small Cash Advances","total_money_raised":"$101M","city":"London","country_code":"GBR","coordinates":{"type":"Point","coordinates":[-0.1626103,51.5192042]}}
{"name":"EyeJot","founded_year":2007,"homepage_url":"http:\/\/www.eyejot.com","category_code":"web","description":"","total_money_raised":"$1.15M","city":"Seattle","country_code":"USA","coordinates":{"type":"Point","coordinates":[-122.3276962,47.5999337]}}
{"name":"Crunchyroll","founded_year":2008,"homepage_url":"http:\/\/www.crunchyroll.com","category_code":"games_video","description":"Digital Entertainment and Media Platform","total_money_raised":"$4.8M","city":"San Francisco","country_code":"USA","coordinates":{"type":"Point","coordinates":[-122.393229,37.781265]}}
{"name":"hulu","founded_year":2007,"homepage_url":"http:\/\/www.hulu.com","category_code":"games_video","description":"Online Video Provider","total_money_raised":"$100M","city":"Los Angeles","country_code":"USA","coordinates":{"type":"Point","coordinates":[-118.456806,34.031276]}}
{"name":"Mixx","founded_year":2007,"homepage_url":"http:\/\/mixx.com","category_code":"web","description":"Social Network and Media sharing","total_money_raised":"$3.5M","city":"McLean","country_code":"USA","coordinates":{"type":"Point","coordinates":[-79.420926,38.003376]}}
{"name":"GENWI","founded_year":2010,"homepage_url":"http:\/\/www.genwi.com","category_code":"mobile","description":"Cloud Publishing for Mobile","total_money_raised":"$7.1M","city":"Los Altos","country_code":"USA","coordinates":{"type":"Point","coordinates":[-111.9035,33.8171]}}
{"name":"ChessPark","founded_year":2007,"homepage_url":"http:\/\/chesspark.com","category_code":"games_video","description":"","total_money_raised":"$1M","city":"West Palm Beach","country_code":"USA","coordinates":{"type":"Point","coordinates":[-83.913153,43.67084]}}
{"name":"UpDown","founded_year":2007,"homepage_url":"http:\/\/www.UpDown.com","category_code":"web","description":"Investment Social Network","total_money_raised":"$1.75M","city":"Cambridge","country_code":"USA","coordinates":{"type":"Point","coordinates":[-71.118487,42.375392]}}
{"name":"SpeedDate","founded_year":2007,"homepage_url":"http:\/\/www.speeddate.com","category_code":"web","description":"","total_money_raised":"$11.6M","city":"San Mateo","country_code":"USA","coordinates":{"type":"Point","coordinates":[-122.285714,37.557637]}}
{"name":"Fixya","founded_year":2013,"homepage_url":"http:\/\/www.fixya.com","category_code":"web","description":"Tech Support Community","total_money_raised":"$8M","city":"San Mateo","country_code":"USA","coordinates":{"type":"Point","coordinates":[-122.323895,37.566879]}}
{"name":"Mobivox","founded_year":2007,"homepage_url":"http:\/\/www.mobivox.com","category_code":"mobile","description":"VoIP Provider","total_money_raised":"$11M","city":"Montreal","country_code":"CAN","coordinates":{"type":"Point","coordinates":[-73.560084,45.500277]}}
{"name":"FriendFeed","founded_year":2007,"homepage_url":"http:\/\/friendfeed.com","category_code":"web","description":"Social network aggregator","total_money_raised":"$5M","city":"Mountain View","country_code":"USA","coordinates":{"type":"Point","coordinates":[-122.072612,37.39248]}}
{"name":"Whiskey Media","founded_year":2007,"homepage_url":"http:\/\/www.whiskeymedia.com","category_code":"web","description":"websites development","total_money_raised":"$4M","city":"San Francisco","country_code":"USA","coordinates":{"type":"Point","coordinates":[-122.495222,37.856331]}}
{"name":"Uptake","founded_year":2008,"homepage_url":"http:\/\/www.uptake.com","category_code":"web","description":"","total_money_raised":"$16.8M","city":"Palo Alto","country_code":"USA","coordinates":{"type":"Point","coordinates":[-122.161674,37.443058]}}
{"name":"Polyvore","founded_year":2007,"homepage_url":"http:\/\/polyvore.com","category_code":"web","description":"Social Shopping Platform","total_money_raised":"$22.1M","city":"Mountain View","country_code":"USA","coordinates":{"type":"Point","coordinates":[-122.083487,37.386175]}}
{"name":"uTest","founded_year":2007,"homepage_url":"http:\/\/www.utest.com","category_code":"software","description":"In-the-wild software testing","total_money_raised":"$37.8M","city":"Framingham","country_code":"USA","coordinates":{"type":"Point","coordinates":[-71.52679,42.288291]}}
{"name":"Tumblr","founded_year":2007,"homepage_url":"http:\/\/tumblr.com","category_code":"web","description":"","total_money_raised":"$125M","city":"New York","country_code":"USA","coordinates":{"type":"Point","coordinates":[-73.983626,40.743808]}}
{"name":"Gydget","founded_year":2007,"homepage_url":"http:\/\/www.gydget.com","category_code":"web","description":"Marketing Widget Maker","total_money_raised":"$1M","city":"San Francisco","country_code":"USA","coordinates":{"type":"Point","coordinates":[-122.398398,37.791733]}}
{"name":"Disqus","founded_year":2007,"homepage_url":"http:\/\/www.disqus.com","category_code":"web","description":"The Web's Community of Communities","total_money_raised":"$10.5M","city":"San Francisco","country_code":"USA","coordinates":{"type":"Point","coordinates":[-122.397672,37.786906]}}
{"name":"RepairPal","founded_year":2007,"homepage_url":"http:\/\/www.repairpal.com","category_code":"web","description":"Online Auto Repair Estimates","total_money_raised":"$21.3M","city":"Emeryville","country_code":"USA","coordinates":{"type":"Point","coordinates":[-122.296411,37.838225]}}
{"name":"GeoSentric","founded_year":2007,"homepage_url":"http:\/\/www.geosentric.com","category_code":"mobile","description":"Social Network and LBS product developer","total_money_raised":"$24.1M","city":"Amsterdam","country_code":"NLD","coordinates":{"type":"Point","coordinates":[-95.712891,37.09024]}}
{"name":"GameLayers","founded_year":2007,"homepage_url":"http:\/\/gamelayers.com","category_code":"web","description":"Multiplayer Networked Games","total_money_raised":"$2M","city":"San Francisco","country_code":"USA","coordinates":{"type":"Point","coordinates":[-122.402468,37.803847]}}
{"name":"WEbook","founded_year":2007,"homepage_url":"http:\/\/www.webook.com","category_code":"web","description":"","total_money_raised":"$5M","city":"New York","country_code":"USA","coordinates":{"type":"Point","coordinates":[-77.095965,38.984172]}}
{"name":"divorce360","founded_year":2007,"homepage_url":"http:\/\/www.divorce360.com","category_code":"web","description":"","total_money_raised":"$2.5M","city":"North Palm Beach","country_code":"USA","coordinates":{"type":"Point","coordinates":[-80.058401,26.820375]}}
{"name":"Uversity","founded_year":2007,"homepage_url":"http:\/\/www.uversity.com","category_code":"social","description":"Social Educational Tools","total_money_raised":"$10.2M","city":null,"country_code":"USA","coordinates":{"type":"Point","coordinates":[-95.712891,37.09024]}}
{"name":"BeliefNet","founded_year":2008,"homepage_url":"http:\/\/beliefnet.com","category_code":"web","description":"","total_money_raised":"$7M","city":"New York","country_code":"USA","coordinates":{"type":"Point","coordinates":[-73.985433,40.740231]}}
{"name":"Goodreads","founded_year":2007,"homepage_url":"http:\/\/www.goodreads.com","category_code":"web","description":"Community for book lovers","total_money_raised":"$2.75M","city":"Santa Monica","country_code":"USA","coordinates":{"type":"Point","coordinates":[-118.495981,34.01052]}}
{"name":"Flixwagon","founded_year":2007,"homepage_url":"http:\/\/flixwagon.com","category_code":"mobile","description":"Live Mobile Video Broadcasting","total_money_raised":"$2.5M","city":"Tel-Aviv","country_code":"ISR","coordinates":{"type":"Point","coordinates":[34.7595,32.0554]}}
{"name":"ideeli","founded_year":2007,"homepage_url":"http:\/\/www.ideeli.com","category_code":"ecommerce","description":"Online Retail Marketplace","total_money_raised":"$107M","city":"New York","country_code":"USA","coordinates":{"type":"Point","coordinates":[-73.990396,40.755978]}}
{"name":"Shoeboxed","founded_year":2007,"homepage_url":"http:\/\/www.shoeboxed.com","category_code":"web","description":"Painless Receipt & Expense Management","total_money_raised":"$2.51M","city":"Durham","country_code":"USA","coordinates":{"type":"Point","coordinates":[-78.902115,35.996157]}}
{"name":"TravelMuse","founded_year":2007,"homepage_url":"http:\/\/www.travelmuse.com","category_code":"web","description":"travel planning","total_money_raised":"$5.6M","city":"New York","country_code":"USA","coordinates":{"type":"Point","coordinates":[-122.117418,37.402802]}}
{"name":"Outspark","founded_year":2007,"homepage_url":"http:\/\/www.outspark.com","category_code":"games_video","description":"Video game publishing","total_money_raised":"$23.3M","city":"San Francisco","country_code":"USA","coordinates":{"type":"Point","coordinates":[-122.419204,37.775196]}}
{"name":"RazorGator","founded_year":2011,"homepage_url":"http:\/\/razorgator.com","category_code":"ecommerce","description":"online ticket reselling","total_money_raised":"$58.8M","city":"Los Angeles","country_code":"USA","coordinates":{"type":"Point","coordinates":[-118.445243,34.047312]}}
{"name":"Roost","founded_year":2007,"homepage_url":"http:\/\/www.roost.com","category_code":"software","description":"Social Marketing Platform","total_money_raised":"$13.5M","city":"San Francisco","country_code":"USA","coordinates":{"type":"Point","coordinates":[-122.4020276,37.7891288]}}
{"name":"clipsync","founded_year":2007,"homepage_url":"http:\/\/www.clipsync.com","category_code":"web","description":"Social TV","total_money_raised":"$1.51M","city":"San Francisco","country_code":"USA","coordinates":{"type":"Point","coordinates":[-121.9317853,37.2906027]}}
{"name":"Zynga","founded_year":2007,"homepage_url":"http:\/\/www.zynga.com","category_code":"games_video","description":"Network of gaming applications","total_money_raised":"$860M","city":"San Francisco","country_code":"USA","coordinates":{"type":"Point","coordinates":[-122.404234,37.765158]}}
{"name":"Lookery","founded_year":2007,"homepage_url":"http:\/\/www.lookery.com","category_code":"web","description":"Social Network Advertising","total_money_raised":"$3.15M","city":"San Francisco","country_code":"USA","coordinates":{"type":"Point","coordinates":[-122.403865,37.788266]}}
{"name":"First30Days","founded_year":2008,"homepage_url":"http:\/\/www.first30days.com","category_code":"web","description":"","total_money_raised":"$5M","city":"Louisville","country_code":"USA","coordinates":{"type":"Point","coordinates":[-85.717393,38.257035]}}
{"name":"RocketOn","founded_year":2007,"homepage_url":"http:\/\/rocketon.com","category_code":"web","description":"Multiplayer social games","total_money_raised":"$5.8M","city":"South San Francisco","country_code":"USA","coordinates":{"type":"Point","coordinates":[-122.40788,37.65466]}}
{"name":"stickK","founded_year":2007,"homepage_url":"http:\/\/www.stickK.com","category_code":"web","description":"","total_money_raised":"$2.23M","city":"New York","country_code":"USA","coordinates":{"type":"Point","coordinates":[-73.983843,40.744837]}}
{"name":"Bragster","founded_year":2007,"homepage_url":"http:\/\/www.bragster.com","category_code":"web","description":null,"total_money_raised":"$3.5M","city":"London","country_code":"GBR","coordinates":{"type":"Point","coordinates":[-0.0766034,51.5220072]}}
{"name":"Social Gaming Network","founded_year":2011,"homepage_url":"http:\/\/www.sgn.com","category_code":"games_video","description":"social gaming platform","total_money_raised":"$17.1M","city":"Los Angeles","country_code":"USA","coordinates":{"type":"Point","coordinates":[-122.161523,37.446823]}}
{"name":"doubleTwist","founded_year":2007,"homepage_url":"http:\/\/www.doubletwist.com","category_code":"software","description":"Music for the Internet of Things","total_money_raised":"$7.5M","city":"San Francisco","country_code":"USA","coordinates":{"type":"Point","coordinates":[-122.419204,37.775196]}}
{"name":"P2P-Next","founded_year":2008,"homepage_url":"http:\/\/www.p2p-next.org","category_code":"hardware","description":"Social Media Conglomerate","total_money_raised":"\u20ac19M","city":"","country_code":"NLD","coordinates":{"type":"Point","coordinates":[5.291266,52.132633]}}
{"name":"Redux","founded_year":2007,"homepage_url":"http:\/\/www.redux.com","category_code":"games_video","description":"Real-time Entertainment Discovery","total_money_raised":"$8.11M","city":"Berkeley","country_code":"USA","coordinates":{"type":"Point","coordinates":[-122.269494,37.87168]}}
{"name":"Raptr","founded_year":2007,"homepage_url":"http:\/\/www.raptr.com","category_code":"games_video","description":"Social Gaming Community","total_money_raised":"$27M","city":"Mountain View","country_code":"USA","coordinates":{"type":"Point","coordinates":[-122.07808,37.40384]}}
{"name":"Kluster","founded_year":2008,"homepage_url":"http:\/\/kluster.com","category_code":"web","description":"Project Collaboration Tool","total_money_raised":"$1M","city":"New York","country_code":"USA","coordinates":{"type":"Point","coordinates":[-73.985281,40.723652]}}
{"name":"BillShrink","founded_year":2008,"homepage_url":"http:\/\/www.billshrink.com","category_code":"web","description":"Product and service recomendations","total_money_raised":"$9M","city":"Redwood City","country_code":"USA","coordinates":{"type":"Point","coordinates":[-122.211435,37.503147]}}
{"name":"MoFuse","founded_year":2007,"homepage_url":"http:\/\/www.mofuse.com","category_code":"mobile","description":"Building mobile Website","total_money_raised":"$1.83M","city":"Providence","country_code":"USA","coordinates":{"type":"Point","coordinates":[-71.408718,41.826956]}}
{"name":"Mzinga","founded_year":2007,"homepage_url":"http:\/\/www.mzinga.com","category_code":"social","description":"Social software solutions","total_money_raised":"$42.5M","city":"Burlington","country_code":"USA","coordinates":{"type":"Point","coordinates":[-71.223359,42.489827]}}
{"name":"crowdSPRING","founded_year":2007,"homepage_url":"http:\/\/www.crowdspring.com","category_code":"ecommerce","description":"crowdsourced design","total_money_raised":"$3M","city":"Chicago","country_code":"USA","coordinates":{"type":"Point","coordinates":[-87.657354,41.88583]}}
{"name":"99designs","founded_year":2008,"homepage_url":"http:\/\/99designs.com","category_code":"design","description":"Online graphic design marketplace","total_money_raised":"$35M","city":"San Francisco","country_code":"USA","coordinates":{"type":"Point","coordinates":[-122.4005983,37.7955307]}}
{"name":"Giant Realm","founded_year":2007,"homepage_url":"http:\/\/www.giantrealm.com","category_code":"web","description":"Media Hosting","total_money_raised":"$5.5M","city":"New York","country_code":"USA","coordinates":{"type":"Point","coordinates":[-73.9827553,40.7566658]}}
{"name":"Skydeck","founded_year":2012,"homepage_url":"http:\/\/skydeck.com","category_code":"mobile","description":"photos social mobile messaging","total_money_raised":"$4M","city":"Palo Alto","country_code":"USA","coordinates":{"type":"Point","coordinates":[-122.3254705,37.5645375]}}
{"name":"Next New Networks","founded_year":2007,"homepage_url":"http:\/\/www.nextnewnetworks.com","category_code":"web","description":"Micro television network platform","total_money_raised":"$27.1M","city":"New York","country_code":"USA","coordinates":{"type":"Point","coordinates":[-73.983626,40.743808]}}
{"name":"Zuora","founded_year":2007,"homepage_url":"http:\/\/www.zuora.com","category_code":"software","description":"Subscription billing and management","total_money_raised":"$128M","city":"Foster City","country_code":"USA","coordinates":{"type":"Point","coordinates":[-122.2709868,37.5596277]}}
{"name":"ShareThis","founded_year":2007,"homepage_url":"http:\/\/sharethis.com","category_code":"social","description":"sharing network, social influence","total_money_raised":"$82.9M","city":"Palo Alto","country_code":"USA","coordinates":{"type":"Point","coordinates":[-122.0872274,37.4203945]}}
{"name":"Playfish","founded_year":2007,"homepage_url":"http:\/\/www.playfish.com","category_code":"games_video","description":"Social games company","total_money_raised":"$21M","city":"London","country_code":"GBR","coordinates":{"type":"Point","coordinates":[-0.1984802,51.4991094]}}
{"name":"Slicethepie","founded_year":2007,"homepage_url":"http:\/\/slicethepie.com","category_code":"games_video","description":"Fundraising Software","total_money_raised":"$4.8M","city":"","country_code":"GBR","coordinates":{"type":"Point","coordinates":[-3.435973,55.378051]}}
{"name":"ShowClix","founded_year":2007,"homepage_url":"http:\/\/www.showclix.com","category_code":"web","description":"Online event ticketing solutions","total_money_raised":"$4.05M","city":"Pittsburgh","country_code":"USA","coordinates":{"type":"Point","coordinates":[-79.842487,40.517948]}}
{"name":"XIHA","founded_year":2007,"homepage_url":"http:\/\/www.xihalife.com","category_code":"games_video","description":"","total_money_raised":"$1M","city":"Helsinki","country_code":"FIN","coordinates":{"type":"Point","coordinates":[24.9410012,60.1681494]}}
{"name":"Mytopia","founded_year":2007,"homepage_url":"http:\/\/www.mytopia.com","category_code":"games_video","description":null,"total_money_raised":"$3.5M","city":"Palo Alto","country_code":"USA","coordinates":{"type":"Point","coordinates":[-118.489681,34.007967]}}
{"name":"Magento","founded_year":2010,"homepage_url":"http:\/\/www.magentocommerce.com","category_code":"ecommerce","description":"eCommerce Platform","total_money_raised":"$22.5M","city":"Los Angeles","country_code":"USA","coordinates":{"type":"Point","coordinates":[-118.243425,34.052187]}}
{"name":"Kannuu","founded_year":2007,"homepage_url":"http:\/\/kannuu.com","category_code":"software","description":"Stop Searching Start Finding","total_money_raised":"$2M","city":"Dallas","country_code":"USA","coordinates":{"type":"Point","coordinates":[-96.7679229,32.9249424]}}
{"name":"MindBites","founded_year":2007,"homepage_url":"http:\/\/mindbites.com","category_code":"web","description":"Instructional Content Marketplace","total_money_raised":"$1M","city":"","country_code":"USA","coordinates":{"type":"Point","coordinates":[-95.712891,37.09024]}}
{"name":"Business Insider","founded_year":2007,"homepage_url":"http:\/\/www.businessinsider.com","category_code":"web","description":"Business News reporter","total_money_raised":"$18.6M","city":"New York","country_code":"USA","coordinates":{"type":"Point","coordinates":[-73.990911,40.73906]}}
{"name":"Zemanta","founded_year":2007,"homepage_url":"http:\/\/www.zemanta.com","category_code":"web","description":"Related Content Recommendations","total_money_raised":"$7.35M","city":"London","country_code":"GBR","coordinates":{"type":"Point","coordinates":[-0.0934254,51.5141566]}}
{"name":"Perfect Market","founded_year":2007,"homepage_url":"http:\/\/www.perfectmarket.com","category_code":"software","description":"Digital Publishing Software & Services","total_money_raised":"$30.6M","city":"Pasadena","country_code":"USA","coordinates":{"type":"Point","coordinates":[-118.153136,34.146436]}}
{"name":"Glassdoor","founded_year":2007,"homepage_url":"http:\/\/www.glassdoor.com","category_code":"web","description":"Jobs and Career Community","total_money_raised":"$91.5M","city":"Sausalito","country_code":"USA","coordinates":{"type":"Point","coordinates":[-122.500111,37.868002]}}
{"name":"Bonobos","founded_year":2007,"homepage_url":"http:\/\/www.bonobos.com","category_code":"ecommerce","description":"E-commerce driven men's retailer","total_money_raised":"$74.7M","city":"New York","country_code":"USA","coordinates":{"type":"Point","coordinates":[-73.9954585,40.7384997]}}
{"name":"AudioMicro","founded_year":2008,"homepage_url":"http:\/\/www.audiomicroinc.com","category_code":"games_video","description":"Content Licensing Network","total_money_raised":"$1.25M","city":"Sherman Oaks","country_code":"USA","coordinates":{"type":"Point","coordinates":[-118.422495,34.153588]}}
{"name":"eRepublik","founded_year":2007,"homepage_url":"http:\/\/www.erepublik.com\/en#BrandyMel","category_code":"games_video","description":"Online social strategy game","total_money_raised":"\u20ac2.75M","city":"Madrid","country_code":"ESP","coordinates":{"type":"Point","coordinates":[-3.6952896,40.43094]}}
{"name":"Shopflick","founded_year":2007,"homepage_url":"http:\/\/www.shopflick.com","category_code":"ecommerce","description":"Video shopping network","total_money_raised":"$8M","city":"Los Angeles","country_code":"USA","coordinates":{"type":"Point","coordinates":[-118.419067,34.044939]}}
{"name":"Mojiva","founded_year":2008,"homepage_url":"http:\/\/www.mojiva.com","category_code":"mobile","description":"Mobile Advertising","total_money_raised":"$45.8M","city":"New York","country_code":"USA","coordinates":{"type":"Point","coordinates":[-73.998662,40.7185614]}}
{"name":"GitHub","founded_year":2008,"homepage_url":"http:\/\/github.com","category_code":"software","description":"Social Coding","total_money_raised":"$100M","city":"San Francisco","country_code":"USA","coordinates":{"type":"Point","coordinates":[-122.419204,37.775196]}}
{"name":"Apture","founded_year":2007,"homepage_url":"http:\/\/apture.com","category_code":"web","description":"Rich multimedia linking","total_money_raised":"$4.6M","city":"San Francisco","country_code":"USA","coordinates":{"type":"Point","coordinates":[-122.322954,37.566042]}}
{"name":"TeachStreet","founded_year":2007,"homepage_url":"http:\/\/www.teachstreet.com","category_code":"web","description":"Marketplace for Lifelong Learning","total_money_raised":"$3.45M","city":"Seattle","country_code":"USA","coordinates":{"type":"Point","coordinates":[-122.3370801,47.6171788]}}
{"name":"MUBI","founded_year":2007,"homepage_url":"http:\/\/mubi.com","category_code":"games_video","description":"streaming video on demand","total_money_raised":"$8.25M","city":"Palo Alto","country_code":"USA","coordinates":{"type":"Point","coordinates":[-122.161025,37.44236]}}
{"name":"UserVoice","founded_year":2008,"homepage_url":"http:\/\/UserVoice.com","category_code":"software","description":"Online feedback and support software","total_money_raised":"$1.8M","city":"San Francisco","country_code":"USA","coordinates":{"type":"Point","coordinates":[-122.0253784,36.9751032]}}
{"name":"Modern Feed","founded_year":2007,"homepage_url":"http:\/\/www.modernfeed.com","category_code":"games_video","description":null,"total_money_raised":"$3M","city":"Los Angeles","country_code":"USA","coordinates":{"type":"Point","coordinates":[-118.343791,34.085749]}}
{"name":"Serious Business","founded_year":2008,"homepage_url":"http:\/\/www.seriousbusiness.com","category_code":"games_video","description":"Social Game Development Studio","total_money_raised":"$4M","city":"San Francisco","country_code":"USA","coordinates":{"type":"Point","coordinates":[-122.4013624,37.7893215]}}
{"name":"Retail Convergence","founded_year":2008,"homepage_url":"","category_code":"ecommerce","description":"Portfolio of ecommerce applications","total_money_raised":"$25M","city":"Boston","country_code":"USA","coordinates":{"type":"Point","coordinates":[-71.05682,42.35888]}}
{"name":"Wigix","founded_year":2007,"homepage_url":"http:\/\/www.wigix.com","category_code":"ecommerce","description":"","total_money_raised":"$5.34M","city":"","country_code":"USA","coordinates":{"type":"Point","coordinates":[-95.712891,37.09024]}}
{"name":"Indochino","founded_year":2007,"homepage_url":"http:\/\/www.indochino.com","category_code":"ecommerce","description":"Custom Menswear","total_money_raised":"$17.3M","city":"Vancouver, BC","country_code":"CAN","coordinates":{"type":"Point","coordinates":[-123.337608,48.487589]}}
{"name":"Pixsta","founded_year":2010,"homepage_url":"http:\/\/www.empora.com","category_code":"web","description":"Visual Search for ecommerce","total_money_raised":"\u00a33M","city":"London","country_code":"GBR","coordinates":{"type":"Point","coordinates":[-0.208979,51.51819]}}
{"name":"New Relic","founded_year":2008,"homepage_url":"http:\/\/newrelic.com","category_code":"software","description":"SaaS Application Performance Management","total_money_raised":"$175M","city":"San Francisco","country_code":"USA","coordinates":{"type":"Point","coordinates":[-119.306607,37.269175]}}
{"name":"Tripwolf","founded_year":2007,"homepage_url":"http:\/\/www.tripwolf.com","category_code":"web","description":"Social travel guide and planner","total_money_raised":"$2.5M","city":"Vienna","country_code":"AUT","coordinates":{"type":"Point","coordinates":[16.355,48.220357]}}
{"name":"Zinch","founded_year":2007,"homepage_url":"http:\/\/www.zinch.com","category_code":"web","description":"Connecting students with opportunities","total_money_raised":"$5M","city":"San Francisco","country_code":"USA","coordinates":{"type":"Point","coordinates":[-111.658656,40.234451]}}
{"name":"GodTube","founded_year":2007,"homepage_url":"http:\/\/www.godtube.com","category_code":"games_video","description":"video-driven Christian social network","total_money_raised":"$32.5M","city":"Plano","country_code":"USA","coordinates":{"type":"Point","coordinates":[-96.823962,33.075067]}}
{"name":"Jinni","founded_year":2008,"homepage_url":"http:\/\/www.jinni.com","category_code":"games_video","description":"TV & Movie Discovery Engine","total_money_raised":"$8.1M","city":"Tel Aviv","country_code":"ISR","coordinates":{"type":"Point","coordinates":[34.7595,32.0554]}}
{"name":"rVita","founded_year":2007,"homepage_url":"http:\/\/www.rvita.com","category_code":"software","description":null,"total_money_raised":"$1M","city":"Santa Clara","country_code":"USA","coordinates":{"type":"Point","coordinates":[-121.978821,37.398476]}}
{"name":"Stitcher","founded_year":2008,"homepage_url":"http:\/\/www.stitcher.com","category_code":"mobile","description":"It is a leading mobile audio company","total_money_raised":"$18.7M","city":"San Francisco","country_code":"USA","coordinates":{"type":"Point","coordinates":[-122.419204,37.775196]}}
{"name":"Sometrics","founded_year":2007,"homepage_url":"http:\/\/sometrics.com","category_code":"games_video","description":"In-game Payment Solutions","total_money_raised":"$5.55M","city":"El Segundo","country_code":"USA","coordinates":{"type":"Point","coordinates":[-118.251343,34.048857]}}
{"name":"Zoosk","founded_year":2007,"homepage_url":"http:\/\/www.zoosk.com","category_code":"social","description":"Behavioral Matchmaking(TM)","total_money_raised":"$61.6M","city":"San Francisco","country_code":"USA","coordinates":{"type":"Point","coordinates":[-122.4099154,37.7726402]}}
{"name":"Transpera","founded_year":2007,"homepage_url":"http:\/\/www.transpera.com","category_code":"mobile","description":"mobile video advertising","total_money_raised":"$19.5M","city":"San Francisco","country_code":"USA","coordinates":{"type":"Point","coordinates":[-122.405081,37.785792]}}
{"name":"Sonico","founded_year":2007,"homepage_url":"http:\/\/www.sonico.com","category_code":"social","description":"Voice and digital entertainment websites","total_money_raised":"$6M","city":"Buenos Aires","country_code":"ARG","coordinates":{"type":"Point","coordinates":[-58.417309,-34.611781]}}
{"name":"CoverItLive","founded_year":2007,"homepage_url":"http:\/\/www.coveritlive.com","category_code":"web","description":"Liveblogging tool","total_money_raised":"$1M","city":"Austin","country_code":"USA","coordinates":{"type":"Point","coordinates":[-79.4255306,43.6378576]}}
{"name":"GreenNote","founded_year":2007,"homepage_url":"http:\/\/www.greennote.com","category_code":"web","description":"Student Lending Site","total_money_raised":"$4.2M","city":"Mather","country_code":"USA","coordinates":{"type":"Point","coordinates":[-122.227765,37.492685]}}
{"name":"Backblaze","founded_year":2007,"homepage_url":"http:\/\/www.backblaze.com","category_code":"software","description":"","total_money_raised":"$5M","city":"Palo Alto","country_code":"USA","coordinates":{"type":"Point","coordinates":[-122.151198,37.44296]}}
{"name":"Crowd Science","founded_year":2007,"homepage_url":"http:\/\/www.crowdscience.com","category_code":"web","description":"Online Market Research","total_money_raised":"$2M","city":"San Jose","country_code":"USA","coordinates":{"type":"Point","coordinates":[-122.087471,37.419041]}}
{"name":"BumpTop","founded_year":2007,"homepage_url":"http:\/\/bumptop.com","category_code":"software","description":"3D Desktops","total_money_raised":"$1.65M","city":"Toronto","country_code":"CAN","coordinates":{"type":"Point","coordinates":[-79.3777473,43.648786]}}
{"name":"Dizzywood","founded_year":2007,"homepage_url":"http:\/\/dizzywood.com","category_code":"games_video","description":"Tween Virtual World","total_money_raised":"$2M","city":"","country_code":"USA","coordinates":{"type":"Point","coordinates":[-119.306607,37.269175]}}
{"name":"BrandYourself","founded_year":2009,"homepage_url":"http:\/\/www.brandyourself.com","category_code":"web","description":"Take Control of Your Own Search Results","total_money_raised":"$1.5M","city":"New York","country_code":"USA","coordinates":{"type":"Point","coordinates":[-71.24762,42.275263]}}
{"name":"SquareClock","founded_year":2007,"homepage_url":"http:\/\/www.squareclock.com","category_code":"web","description":"3D platform decor architecture","total_money_raised":"$1.25M","city":"Asnieres sur seine","country_code":"FRA","coordinates":{"type":"Point","coordinates":[2.2860418,48.9064804]}}
{"name":"Tapulous","founded_year":2008,"homepage_url":"http:\/\/tapulous.com","category_code":"mobile","description":"iPhone application developer","total_money_raised":"$2.8M","city":"Palo Alto","country_code":"USA","coordinates":{"type":"Point","coordinates":[-122.161018,37.444332]}}
{"name":"CrimeReports","founded_year":2007,"homepage_url":"http:\/\/www.crimereports.com","category_code":"web","description":"crime mapping and alerting","total_money_raised":"$7.2M","city":"Salt Lake City","country_code":"USA","coordinates":{"type":"Point","coordinates":[-111.858835,40.726342]}}
{"name":"Titan Gaming","founded_year":2010,"homepage_url":"http:\/\/www.playsino.com","category_code":"games_video","description":"","total_money_raised":"$1M","city":"Santa Monica","country_code":"USA","coordinates":{"type":"Point","coordinates":[-113.515769,53.544711]}}
{"name":"Bambuser","founded_year":2007,"homepage_url":"http:\/\/www.bambuser.com","category_code":"mobile","description":"live video company","total_money_raised":"$2.5M","city":"Stockholm","country_code":"SWE","coordinates":{"type":"Point","coordinates":[18.064488,59.332788]}}
{"name":"Aloqa","founded_year":2007,"homepage_url":"http:\/\/www.aloqa.com","category_code":"mobile","description":"Always Be A Local","total_money_raised":"$1.5M","city":"Munich","country_code":"DEU","coordinates":{"type":"Point","coordinates":[11.5677288,48.1281209]}}
{"name":"My Damn Channel","founded_year":2007,"homepage_url":"http:\/\/mydamnchannel.com","category_code":"games_video","description":"","total_money_raised":"$8.66M","city":"New York","country_code":"USA","coordinates":{"type":"Point","coordinates":[-73.988543,40.754762]}}
{"name":"Drimki","founded_year":2007,"homepage_url":"http:\/\/www.drimki.fr","category_code":"ecommerce","description":null,"total_money_raised":"$5.14M","city":"Paris","country_code":"FRA","coordinates":{"type":"Point","coordinates":[2.350987,48.856667]}}
{"name":"Posterous","founded_year":2008,"homepage_url":"http:\/\/posterous.com","category_code":"web","description":"Web Publishing Platform","total_money_raised":"$10.1M","city":"San Francisco","country_code":"USA","coordinates":{"type":"Point","coordinates":[-122.419204,37.775196]}}
{"name":"Open Places","founded_year":2008,"homepage_url":"http:\/\/openplac.es","category_code":"web","description":"Travel","total_money_raised":"$1.1M","city":"San Francisco","country_code":"USA","coordinates":{"type":"Point","coordinates":[-122.398379,37.758352]}}
{"name":"Genbook","founded_year":2007,"homepage_url":"http:\/\/www.genbook.com","category_code":"web","description":"","total_money_raised":"$2.2M","city":"San Francisco","country_code":"USA","coordinates":{"type":"Point","coordinates":[-122.4007791,37.789902]}}
{"name":"TweetDeck","founded_year":2008,"homepage_url":"http:\/\/www.tweetdeck.com","category_code":"software","description":"Adobe Air applicaton for Twitter","total_money_raised":"$3.8M","city":"London","country_code":"GBR","coordinates":{"type":"Point","coordinates":[-0.1262362,51.5001524]}}
{"name":"Wahanda","founded_year":2008,"homepage_url":"http:\/\/www.wahanda.com","category_code":"web","description":"Wellness Community and Marketplace","total_money_raised":"\u00a37M","city":"London","country_code":"GBR","coordinates":{"type":"Point","coordinates":[1.996567,41.792265]}}
{"name":"Bitly","founded_year":2008,"homepage_url":"http:\/\/bit.ly","category_code":"web","description":"URL shortener","total_money_raised":"$31.4M","city":"New York","country_code":"USA","coordinates":{"type":"Point","coordinates":[-74.00721,40.74034]}}
{"name":"Flat World Knowledge","founded_year":2007,"homepage_url":"http:\/\/www.flatworldknowledge.com","category_code":"software","description":"Open College Textbooks","total_money_raised":"$26.2M","city":"Irvington","country_code":"USA","coordinates":{"type":"Point","coordinates":[-73.923422,41.091306]}}
{"name":"Involver","founded_year":2007,"homepage_url":"http:\/\/www.involver.com","category_code":"software","description":"Social Marketing Platform","total_money_raised":"$11.3M","city":"San Francisco","country_code":"USA","coordinates":{"type":"Point","coordinates":[-122.401333,37.788653]}}
{"name":"Zendesk","founded_year":2007,"homepage_url":"http:\/\/zendesk.com","category_code":"software","description":"customer service solution","total_money_raised":"$85.5M","city":"San Francisco","country_code":"USA","coordinates":{"type":"Point","coordinates":[12.568116,55.676294]}}
{"name":"Minted","founded_year":2007,"homepage_url":"http:\/\/www.minted.com","category_code":"ecommerce","description":"marketplace for design and art","total_money_raised":"$52.7M","city":"San Francisco","country_code":"USA","coordinates":{"type":"Point","coordinates":[-122.403175,37.797435]}}
{"name":"Huddler","founded_year":2007,"homepage_url":"http:\/\/www.huddler.com","category_code":"web","description":"We Know Communities.","total_money_raised":"$22.8M","city":"San Francisco","country_code":"USA","coordinates":{"type":"Point","coordinates":[-122.4013624,37.7893215]}}
{"name":"Prezi","founded_year":2009,"homepage_url":"http:\/\/prezi.com","category_code":"software","description":"Presentation Software","total_money_raised":"$14.3M","city":"Budapest","country_code":"HUN","coordinates":{"type":"Point","coordinates":[19.059078,47.490346]}}
{"name":"Anvato","founded_year":2007,"homepage_url":"http:\/\/www.anvato.com","category_code":"games_video","description":"Video Platform Live and OnDemand","total_money_raised":"$2.55M","city":"Mountain View","country_code":"USA","coordinates":{"type":"Point","coordinates":[-122.0572,37.400689]}}
{"name":"Hunch","founded_year":2007,"homepage_url":"http:\/\/hunch.com","category_code":"web","description":"Decision making website.","total_money_raised":"$19.2M","city":"New York","country_code":"USA","coordinates":{"type":"Point","coordinates":[-73.993182,40.741179]}}
{"name":"ngmoco","founded_year":2008,"homepage_url":"http:\/\/www.ngmoco.com","category_code":"games_video","description":"Games for the iPhone","total_money_raised":"$44.8M","city":"San Francisco","country_code":"USA","coordinates":{"type":"Point","coordinates":[-122.4015807,37.7705096]}}
{"name":"SpiderOak","founded_year":2007,"homepage_url":"http:\/\/spideroak.com","category_code":"web","description":"","total_money_raised":"$2M","city":"Northbrook","country_code":"USA","coordinates":{"type":"Point","coordinates":[-87.862305,42.142261]}}
{"name":"Integrate","founded_year":2010,"homepage_url":"http:\/\/integrate.com","category_code":"software","description":"Marketing Software and Media Services","total_money_raised":"$34.8M","city":"Scottsdale","country_code":"USA","coordinates":{"type":"Point","coordinates":[-74.0353787,40.7481039]}}
{"name":"LockerDome","founded_year":2008,"homepage_url":"http:\/\/lockerdome.com","category_code":"social","description":"interest-based social media platform","total_money_raised":"$8.09M","city":"St. Louis","country_code":"USA","coordinates":{"type":"Point","coordinates":[-90.2598684,38.6501668]}}
{"name":"Occipital","founded_year":2008,"homepage_url":"http:\/\/www.occipital.com","category_code":"software","description":"Mobile computer vision","total_money_raised":"$8.02M","city":"Boulder","country_code":"USA","coordinates":{"type":"Point","coordinates":[-105.278109,40.018145]}}
{"name":"Lyft","founded_year":2007,"homepage_url":"http:\/\/lyft.com","category_code":"software","description":"Your friend with a car\u2122","total_money_raised":"$82.5M","city":"San Francisco","country_code":"USA","coordinates":{"type":"Point","coordinates":[-122.4007846,37.7899027]}}
{"name":"Producteev","founded_year":2008,"homepage_url":"http:\/\/www.producteev.com","category_code":"software","description":"Group Task Management Application","total_money_raised":"$1.31M","city":"New York","country_code":"USA","coordinates":{"type":"Point","coordinates":[-73.983656,40.775309]}}
{"name":"GoodGuide","founded_year":2007,"homepage_url":"http:\/\/goodguide.com","category_code":"web","description":"Rating and review site","total_money_raised":"$14.2M","city":"San Francisco","country_code":"USA","coordinates":{"type":"Point","coordinates":[-122.4000032,37.7983181]}}
{"name":"Tweegee","founded_year":2008,"homepage_url":"http:\/\/www.tweegee.com","category_code":"games_video","description":"Tweens & Kids social network","total_money_raised":"$3M","city":"Ramat Gan","country_code":"ISR","coordinates":{"type":"Point","coordinates":[34.8003705,32.037363]}}
{"name":"Big Stage","founded_year":2008,"homepage_url":"http:\/\/bigstage.com","category_code":"web","description":"3d imaging","total_money_raised":"$10.6M","city":"South Pasadena","country_code":"USA","coordinates":{"type":"Point","coordinates":[-118.174878,34.111471]}}
{"name":"Lolapps","founded_year":2008,"homepage_url":"http:\/\/www.lolapps.com","category_code":"web","description":"","total_money_raised":"$4M","city":"San Francisco","country_code":"USA","coordinates":{"type":"Point","coordinates":[-122.3999719,37.7870923]}}
{"name":"InnerRewards","founded_year":2008,"homepage_url":"http:\/\/www.InnerRewards.com","category_code":"ecommerce","description":"Spa and Well-being social network","total_money_raised":"$1M","city":"San Francisco","country_code":"USA","coordinates":{"type":"Point","coordinates":[-122.404403,37.78691]}}
{"name":"Integrate","founded_year":2010,"homepage_url":"http:\/\/integrate.com","category_code":"software","description":"Marketing Software and Media Services","total_money_raised":"$34.8M","city":"Scottsdale","country_code":"USA","coordinates":{"type":"Point","coordinates":[-74.0353787,40.7481039]}}
{"name":"LockerDome","founded_year":2008,"homepage_url":"http:\/\/lockerdome.com","category_code":"social","description":"interest-based social media platform","total_money_raised":"$8.09M","city":"St. Louis","country_code":"USA","coordinates":{"type":"Point","coordinates":[-90.2598684,38.6501668]}}
{"name":"Occipital","founded_year":2008,"homepage_url":"http:\/\/www.occipital.com","category_code":"software","description":"Mobile computer vision","total_money_raised":"$8.02M","city":"Boulder","country_code":"USA","coordinates":{"type":"Point","coordinates":[-105.278109,40.018145]}}
{"name":"Lyft","founded_year":2007,"homepage_url":"http:\/\/lyft.com","category_code":"software","description":"Your friend with a car\u2122","total_money_raised":"$82.5M","city":"San Francisco","country_code":"USA","coordinates":{"type":"Point","coordinates":[-122.4007846,37.7899027]}}
{"name":"Producteev","founded_year":2008,"homepage_url":"http:\/\/www.producteev.com","category_code":"software","description":"Group Task Management Application","total_money_raised":"$1.31M","city":"New York","country_code":"USA","coordinates":{"type":"Point","coordinates":[-73.983656,40.775309]}}
{"name":"GoodGuide","founded_year":2007,"homepage_url":"http:\/\/goodguide.com","category_code":"web","description":"Rating and review site","total_money_raised":"$14.2M","city":"San Francisco","country_code":"USA","coordinates":{"type":"Point","coordinates":[-122.4000032,37.7983181]}}
{"name":"Tweegee","founded_year":2008,"homepage_url":"http:\/\/www.tweegee.com","category_code":"games_video","description":"Tweens & Kids social network","total_money_raised":"$3M","city":"Ramat Gan","country_code":"ISR","coordinates":{"type":"Point","coordinates":[34.8003705,32.037363]}}
{"name":"Big Stage","founded_year":2008,"homepage_url":"http:\/\/bigstage.com","category_code":"web","description":"3d imaging","total_money_raised":"$10.6M","city":"South Pasadena","country_code":"USA","coordinates":{"type":"Point","coordinates":[-118.174878,34.111471]}}
{"name":"Lolapps","founded_year":2008,"homepage_url":"http:\/\/www.lolapps.com","category_code":"web","description":"","total_money_raised":"$4M","city":"San Francisco","country_code":"USA","coordinates":{"type":"Point","coordinates":[-122.3999719,37.7870923]}}
{"name":"InnerRewards","founded_year":2008,"homepage_url":"http:\/\/www.InnerRewards.com","category_code":"ecommerce","description":"Spa and Well-being social network","total_money_raised":"$1M","city":"San Francisco","country_code":"USA","coordinates":{"type":"Point","coordinates":[-122.404403,37.78691]}}
{"name":"Buzzd","founded_year":2007,"homepage_url":"http:\/\/www.buzzd.com","category_code":"mobile","description":"Location-sensitive social city guide","total_money_raised":"$4M","city":"New York","country_code":"USA","coordinates":{"type":"Point","coordinates":[-73.991334,40.733928]}}
{"name":"DealBase Corporation","founded_year":2008,"homepage_url":"http:\/\/www.dealbase.com","category_code":"web","description":"Travel Deal Search Engine","total_money_raised":"$1M","city":"Manhattan Beach","country_code":"USA","coordinates":{"type":"Point","coordinates":[-122.3277578,37.5758867]}}
{"name":"Cliqset","founded_year":2008,"homepage_url":"http:\/\/www.cliqset.com","category_code":"web","description":"Share. Discover. Discuss.","total_money_raised":"$2M","city":"Jacksonville","country_code":"USA","coordinates":{"type":"Point","coordinates":[-81.657707,30.310978]}}
{"name":"Gowalla","founded_year":2007,"homepage_url":"http:\/\/gowalla.com","category_code":"web","description":"Mobile and Web Service","total_money_raised":"$10.4M","city":"Austin","country_code":"USA","coordinates":{"type":"Point","coordinates":[-97.7443863,30.2729209]}}
{"name":"Brightstorm","founded_year":2008,"homepage_url":"http:\/\/www.brightstorm.com","category_code":"games_video","description":"Video Tutorial Site","total_money_raised":"$6M","city":"San Francisco","country_code":"USA","coordinates":{"type":"Point","coordinates":[-122.371203,37.804619]}}
{"name":"Heatwave Interactive","founded_year":2008,"homepage_url":"http:\/\/heatwave.com","category_code":"games_video","description":"","total_money_raised":"$12.6M","city":"Austin","country_code":"USA","coordinates":{"type":"Point","coordinates":[-97.762921,30.297775]}}
{"name":"PicApp","founded_year":2008,"homepage_url":"http:\/\/www.picapp.com","category_code":"web","description":"","total_money_raised":"$3.2M","city":"San Francisco","country_code":"USA","coordinates":{"type":"Point","coordinates":[-122.4031242,37.79402]}}
{"name":"Finsphere","founded_year":2007,"homepage_url":"http:\/\/Finsphere.com","category_code":"mobile","description":"Mobile Identity Protection","total_money_raised":"$30.7M","city":"Bellevue","country_code":"USA","coordinates":{"type":"Point","coordinates":[-122.198904,47.614761]}}
{"name":"Reframe It","founded_year":2007,"homepage_url":"http:\/\/reframeit.com","category_code":"web","description":"","total_money_raised":"$3.18M","city":"San Francisco","country_code":"USA","coordinates":{"type":"Point","coordinates":[-122.400591,37.782163]}}
{"name":"Britely","founded_year":2007,"homepage_url":"http:\/\/www.britely.com","category_code":"web","description":"Capture the best ideas.","total_money_raised":"$3.9M","city":"Palo Alto","country_code":"USA","coordinates":{"type":"Point","coordinates":[-122.172519,37.458766]}}
{"name":"Siri","founded_year":2007,"homepage_url":"http:\/\/www.siri.com","category_code":"software","description":"Personal Assistant iPhone app","total_money_raised":"$24M","city":"San Jose","country_code":"USA","coordinates":{"type":"Point","coordinates":[-121.877636,37.320052]}}
{"name":"ResearchGate","founded_year":2008,"homepage_url":"http:\/\/www.researchgate.net","category_code":"social","description":"The professional network for scientists.","total_money_raised":"$35M","city":"Berlin","country_code":"DEU","coordinates":{"type":"Point","coordinates":[13.3842605,52.5308516]}}
{"name":"Booyah","founded_year":2008,"homepage_url":"http:\/\/www.booyah.com","category_code":"games_video","description":"Real-World Social Gaming, iPhone App","total_money_raised":"$59.5M","city":"San Francisco","country_code":"USA","coordinates":{"type":"Point","coordinates":[-122.2103414,37.420728]}}
{"name":"Formspring","founded_year":2009,"homepage_url":"http:\/\/www.formspring.me","category_code":"web","description":"Conversational Q&A Service","total_money_raised":"$14.3M","city":"San Francisco","country_code":"USA","coordinates":{"type":"Point","coordinates":[-86.0547016,39.9052263]}}
{"name":"Wishabi","founded_year":2008,"homepage_url":"http:\/\/www.wishabi.com","category_code":"ecommerce","description":"Reinventing the Digital Circular","total_money_raised":"$16M","city":"Toronto","country_code":"CAN","coordinates":{"type":"Point","coordinates":[-79.567221,43.644678]}}
{"name":"SureSpeak","founded_year":2007,"homepage_url":"http:\/\/www.surespeak.com","category_code":"games_video","description":"","total_money_raised":"$1.6M","city":"Chicago","country_code":"USA","coordinates":{"type":"Point","coordinates":[-87.632519,41.889183]}}
{"name":"SocialGO","founded_year":2007,"homepage_url":"http:\/\/www.socialgo.com","category_code":"social","description":"We love communities","total_money_raised":"$3M","city":"London","country_code":"GBR","coordinates":{"type":"Point","coordinates":[-0.0925694,51.5027669]}}
{"name":"Awdio","founded_year":2007,"homepage_url":"http:\/\/awdio.com","category_code":"games_video","description":"","total_money_raised":"\u20ac1.5M","city":"Paris","country_code":"FRA","coordinates":{"type":"Point","coordinates":[2.356288,48.887534]}}
{"name":"DocVerse","founded_year":2007,"homepage_url":"http:\/\/www.docverse.com","category_code":"web","description":"Document collaboration","total_money_raised":"$1.3M","city":"San Francisco","country_code":"USA","coordinates":{"type":"Point","coordinates":[-122.397141,37.788115]}}
{"name":"Yipit","founded_year":2010,"homepage_url":"http:\/\/yipit.com","category_code":"web","description":"Every deal. One place.","total_money_raised":"$7.55M","city":"New York","country_code":"USA","coordinates":{"type":"Point","coordinates":[-73.987764,40.744618]}}
{"name":"Trustpilot","founded_year":2007,"homepage_url":"http:\/\/www.trustpilot.com","category_code":"web","description":"Online review service","total_money_raised":"$18.4M","city":"Copenhagen V","country_code":"DNK","coordinates":{"type":"Point","coordinates":[12.5605372,55.6739617]}}
{"name":"Clearleap","founded_year":2007,"homepage_url":"http:\/\/www.clearleap.com","category_code":"software","description":"Television and Online Video IP Delivery","total_money_raised":"$41.3M","city":"Duluth","country_code":"USA","coordinates":{"type":"Point","coordinates":[-84.058708,34.070164]}}
{"name":"Kynetx","founded_year":2007,"homepage_url":"http:\/\/www.kynetx.com","category_code":"software","description":"Context-sensitve App Building Platform","total_money_raised":"$2M","city":"Lehi","country_code":"USA","coordinates":{"type":"Point","coordinates":[-111.8967224,40.4273613]}}
{"name":"Movirtu","founded_year":2008,"homepage_url":"http:\/\/www.movirtu.com","category_code":"mobile","description":"Virtual SIM Solutions","total_money_raised":"$5.5M","city":"London","country_code":"GBR","coordinates":{"type":"Point","coordinates":[-0.1815999,51.5499708]}}
{"name":"ZeroTurnaround","founded_year":2007,"homepage_url":"http:\/\/www.zeroturnaround.com","category_code":"software","description":"Productivity tools for Java developers","total_money_raised":"$2.7M","city":"Tartu","country_code":"USA","coordinates":{"type":"Point","coordinates":[26.731054,58.3820542]}}
{"name":"HyperWeek","founded_year":2009,"homepage_url":"http:\/\/www.hyperweek.com","category_code":"social","description":"Social Networks ","total_money_raised":"$1.31M","city":"Geneva","country_code":"CHE","coordinates":{"type":"Point","coordinates":[6.1503245,46.2121463]}}
{"name":"People Capital","founded_year":2008,"homepage_url":"http:\/\/www.people2capital.com","category_code":"web","description":"Peer-to-Peer Student Loans","total_money_raised":"$2.5M","city":"New York","country_code":"USA","coordinates":{"type":"Point","coordinates":[-73.986951,40.756054]}}
{"name":"expressor software","founded_year":2007,"homepage_url":"http:\/\/www.expressor-software.com","category_code":"software","description":"data integration software","total_money_raised":"$29.1M","city":"Burlington","country_code":"USA","coordinates":{"type":"Point","coordinates":[-71.211568,42.485102]}}
{"name":"PrestaShop","founded_year":2007,"homepage_url":"http:\/\/www.prestashop.com","category_code":"software","description":"Open Source E-Commerce Software","total_money_raised":"\u20ac3.9M","city":"Levallois-Perret","country_code":"FRA","coordinates":{"type":"Point","coordinates":[2.3593849,48.8687217]}}
{"name":"Modelinia","founded_year":2008,"homepage_url":"http:\/\/www.modelinia.com","category_code":"web","description":"supermodel hub","total_money_raised":"$5M","city":"New York","country_code":"USA","coordinates":{"type":"Point","coordinates":[-73.990024,40.739867]}}
{"name":"Drync","founded_year":2008,"homepage_url":"http:\/\/www.drync.com","category_code":"mobile","description":"Personal Product Ratings Organizer","total_money_raised":"$1.77M","city":"Boston","country_code":"USA","coordinates":{"type":"Point","coordinates":[-71.14462,42.376862]}}
{"name":"Coveroo","founded_year":2008,"homepage_url":"http:\/\/www.coveroo.com","category_code":"hardware","description":"","total_money_raised":"$3.8M","city":"San Francisco","country_code":"USA","coordinates":{"type":"Point","coordinates":[-122.407603,37.770067]}}
{"name":"Clikthrough","founded_year":2007,"homepage_url":"http:\/\/clikthrough.com","category_code":"software","description":"Interactive Videos","total_money_raised":"$2M","city":"San Francisco","country_code":"USA","coordinates":{"type":"Point","coordinates":[-122.4022856,37.7965781]}}
{"name":"RideCharge","founded_year":2007,"homepage_url":"http:\/\/www.ridecharge.com","category_code":"mobile","description":"Mobile transportation solutions","total_money_raised":"$8.6M","city":"Alexandria","country_code":"USA","coordinates":{"type":"Point","coordinates":[-77.038605,38.814329]}}
{"name":"StockTwits","founded_year":2008,"homepage_url":"http:\/\/stocktwits.com","category_code":"web","description":"Real-Time Financial Idea Network","total_money_raised":"$8.6M","city":"San Diego","country_code":"USA","coordinates":{"type":"Point","coordinates":[-117.168697,32.7161896]}}
{"name":"Green Apple Media","founded_year":2007,"homepage_url":"http:\/\/www.greenapplemedia.ie","category_code":"web","description":"","total_money_raised":"$132M","city":"Dublin","country_code":"IRL","coordinates":{"type":"Point","coordinates":[-6.2689465,53.3438298]}}
{"name":"Busuu","founded_year":2008,"homepage_url":"http:\/\/www.busuu.com","category_code":"social","description":"Learning Languages Community","total_money_raised":"$4.7M","city":"Madrid","country_code":"ESP","coordinates":{"type":"Point","coordinates":[-3.6830316,40.4225487]}}
{"name":"mydeco","founded_year":2007,"homepage_url":"http:\/\/mydeco.com","category_code":"web","description":"Online homewares ecommerce site","total_money_raised":"\u00a312.5M","city":"London","country_code":"GBR","coordinates":{"type":"Point","coordinates":[-0.468617,51.518101]}}
{"name":"BeliefNetworks","founded_year":2007,"homepage_url":"http:\/\/beliefnetworks.net","category_code":"software","description":"","total_money_raised":"$1.4M","city":"Charleston","country_code":"USA","coordinates":{"type":"Point","coordinates":[-79.999591,32.783932]}}
{"name":"Klout","founded_year":2008,"homepage_url":"http:\/\/klout.com","category_code":"social","description":"Measures Online Influence","total_money_raised":"$40M","city":"San Francisco","country_code":"USA","coordinates":{"type":"Point","coordinates":[-118.2474287,34.0497638]}}
{"name":"RJMetrics","founded_year":2008,"homepage_url":"http:\/\/www.rjmetrics.com","category_code":"software","description":"","total_money_raised":"$7.45M","city":"Philadelphia","country_code":"USA","coordinates":{"type":"Point","coordinates":[-75.1257381,39.9443552]}}
{"name":"5th Finger","founded_year":2008,"homepage_url":"http:\/\/www.5thFinger.com","category_code":"mobile","description":"Responsive Design Solutions Provider","total_money_raised":"$7M","city":"San Francisco","country_code":"USA","coordinates":{"type":"Point","coordinates":[-122.4021988,37.7900992]}}
{"name":"ScaleMP","founded_year":2009,"homepage_url":"http:\/\/www.scalemp.com","category_code":"software","description":"Virtualization for high end computing","total_money_raised":"$8M","city":"Cupertino","country_code":"USA","coordinates":{"type":"Point","coordinates":[-122.0385792,37.3229727]}}
{"name":"Vocalocity","founded_year":2007,"homepage_url":"http:\/\/www.vocalocity.com","category_code":"software","description":"Small Business VoIP Solutions","total_money_raised":"$17.1M","city":"Atlanta","country_code":"USA","coordinates":{"type":"Point","coordinates":[-84.3675617,33.7812614]}}
{"name":"VisualOn","founded_year":2011,"homepage_url":"http:\/\/visualon.com","category_code":"software","description":"Multimedia Software","total_money_raised":"$3.1M","city":"Santa Clara","country_code":"USA","coordinates":{"type":"Point","coordinates":[-121.955879,37.270518]}}
{"name":"Heyzap","founded_year":2009,"homepage_url":"http:\/\/www.heyzap.com","category_code":"games_video","description":"Social Discovery Platform","total_money_raised":"$7.97M","city":"San Francisco","country_code":"USA","coordinates":{"type":"Point","coordinates":[-122.4041485,37.7905538]}}
{"name":"Meez","founded_year":2009,"homepage_url":"http:\/\/meez.com","category_code":"hardware","description":"Avatar community site","total_money_raised":"$10.2M","city":"San Francisco","country_code":"USA","coordinates":{"type":"Point","coordinates":[-122.397582,37.785271]}}
{"name":"PEX Card","founded_year":2007,"homepage_url":"http:\/\/www.pexcard.com","category_code":"software","description":"Corporate Prepaid Card Solution","total_money_raised":"$5.7M","city":"New York","country_code":"USA","coordinates":{"type":"Point","coordinates":[-73.987871,40.752539]}}
{"name":"Skout","founded_year":2007,"homepage_url":"http:\/\/www.skout.com","category_code":"social","description":"Mobile App for Meeting New People","total_money_raised":"$22M","city":"San Francisco","country_code":"USA","coordinates":{"type":"Point","coordinates":[-122.3912492,37.7800539]}}
{"name":"Neuralitic Systems","founded_year":2007,"homepage_url":"http:\/\/www.neuralitic.com","category_code":"mobile","description":"Mobile user behavior solutions","total_money_raised":"$18M","city":"Montr\u00c3\u00a9al, Qc","country_code":"CAN","coordinates":{"type":"Point","coordinates":[-73.5570651,45.5044288]}}
{"name":"Comixology","founded_year":2007,"homepage_url":"http:\/\/www.comixology.com","category_code":"games_video","description":"Comic publishing\/new platform","total_money_raised":"$3.47M","city":"New York","country_code":"USA","coordinates":{"type":"Point","coordinates":[-73.987794,40.740512]}}
{"name":"KODA","founded_year":2008,"homepage_url":"http:\/\/koda.us","category_code":"web","description":"Social Recruiting and Job Search Site","total_money_raised":"$4.5M","city":"San Francisco","country_code":"USA","coordinates":{"type":"Point","coordinates":[-122.40971,37.788796]}}
{"name":"Audiolife","founded_year":2008,"homepage_url":"http:\/\/www.audiolife.com","category_code":"ecommerce","description":"Directo-to-fan e-commerce solution","total_money_raised":"$4.5M","city":"Van Nuys","country_code":"USA","coordinates":{"type":"Point","coordinates":[-118.487236,34.213925]}}
{"name":"Ginger Software","founded_year":2007,"homepage_url":"http:\/\/www.gingersoftware.com","category_code":"software","description":"#1 Proofreader in English","total_money_raised":"$11.7M","city":"Lexington","country_code":"USA","coordinates":{"type":"Point","coordinates":[-71.2344601,42.4352222]}}
{"name":"Shutl","founded_year":2009,"homepage_url":"http:\/\/shutl.co.uk","category_code":"ecommerce","description":"","total_money_raised":"\u00a37.66M","city":"London","country_code":"GBR","coordinates":{"type":"Point","coordinates":[-0.1020265,51.5196135]}}
{"name":"Socialize","founded_year":2008,"homepage_url":"http:\/\/www.getsocialize.com","category_code":"mobile","description":"Put your users to work.","total_money_raised":"$1.82M","city":"San Francisco","country_code":"USA","coordinates":{"type":"Point","coordinates":[-76.998641,38.88521]}}
{"name":"The Talk Market","founded_year":2007,"homepage_url":"http:\/\/www.talkmarket.com","category_code":"ecommerce","description":"Online video ecommerce company","total_money_raised":"$2.5M","city":"New York","country_code":"USA","coordinates":{"type":"Point","coordinates":[-73.986951,40.756054]}}
{"name":"Space-Time Insight","founded_year":2007,"homepage_url":"http:\/\/www.spacetimeinsight.com","category_code":"software","description":"Situational Intelligence","total_money_raised":"$42M","city":"San Mateo","country_code":"USA","coordinates":{"type":"Point","coordinates":[-122.27977,37.555773]}}
{"name":"Delphix","founded_year":2008,"homepage_url":"http:\/\/www.delphix.com","category_code":"software","description":"Database virtualization","total_money_raised":"$44.5M","city":"Menlo Park","country_code":"USA","coordinates":{"type":"Point","coordinates":[-122.1011815,37.4239496]}}
{"name":"Zapproved","founded_year":2008,"homepage_url":"http:\/\/www.zapproved.com","category_code":"software","description":"Approval Lifecycle Web Application","total_money_raised":"$1.45M","city":"Portland","country_code":"USA","coordinates":{"type":"Point","coordinates":[-122.8097,45.5251]}}
{"name":"Fortumo","founded_year":2007,"homepage_url":"http:\/\/fortumo.com","category_code":"mobile","description":" Mobile Payments Platform","total_money_raised":"$10M","city":"Tartu","country_code":"EST","coordinates":{"type":"Point","coordinates":[26.7212208,58.3754107]}}
{"name":"Mashup Arts","founded_year":2007,"homepage_url":"http:\/\/www.MashupArts.com","category_code":"software","description":"Personalized Ecards","total_money_raised":"$1.58M","city":"Halifax","country_code":"CAN","coordinates":{"type":"Point","coordinates":[-79.3777473,43.648786]}}
{"name":"Tinychat","founded_year":2009,"homepage_url":"http:\/\/tinychat.com","category_code":"web","description":"In-Browser Audio, Video Chat","total_money_raised":"$1.5M","city":"Glen Cove","country_code":"USA","coordinates":{"type":"Point","coordinates":[-72.5196907,42.3756409]}}
{"name":"BASH Gaming","founded_year":2010,"homepage_url":"http:\/\/www.bashgaming.com","category_code":"games_video","description":"Social Mobile Casino Games","total_money_raised":"$1M","city":"Fremont","country_code":"USA","coordinates":{"type":"Point","coordinates":[-122.0780632,37.5561712]}}
{"name":"L4 Mobile","founded_year":2008,"homepage_url":"http:\/\/www.l4mobile.com","category_code":"mobile","description":"Concept to delivery- mobile services","total_money_raised":"$4.8M","city":"Seattle","country_code":"USA","coordinates":{"type":"Point","coordinates":[-122.2049192,47.676762]}}
{"name":"Mendeley","founded_year":2008,"homepage_url":"http:\/\/www.mendeley.com","category_code":"social","description":"Research management and collaboration","total_money_raised":"$2.13M","city":"London","country_code":"GBR","coordinates":{"type":"Point","coordinates":[-0.1046546,51.5224267]}}
{"name":"AppNeta","founded_year":2010,"homepage_url":"http:\/\/www.appneta.com","category_code":"software","description":"IT Performance Management","total_money_raised":"$55.8M","city":"SOUTH BOSTON","country_code":"USA","coordinates":{"type":"Point","coordinates":[-71.24756,42.318138]}}
{"name":"AppZero","founded_year":2009,"homepage_url":"http:\/\/www.appzero.com","category_code":"software","description":"application migration software","total_money_raised":"$15.1M","city":"Andover","country_code":"USA","coordinates":{"type":"Point","coordinates":[-71.1469003,42.6751888]}}
{"name":"Crispy Gamer","founded_year":2008,"homepage_url":"http:\/\/www.crispygamer.com","category_code":"games_video","description":"videogame review community","total_money_raised":"$8.25M","city":"New York","country_code":"USA","coordinates":{"type":"Point","coordinates":[-73.985273,40.750597]}}
{"name":"UnboundID","founded_year":2007,"homepage_url":"http:\/\/www.unboundid.com","category_code":"software","description":"Identity management software","total_money_raised":"$14.5M","city":"Austin","country_code":"USA","coordinates":{"type":"Point","coordinates":[-97.777273,30.498112]}}
{"name":"Viridity Software","founded_year":2008,"homepage_url":"http:\/\/www.viriditysoftware.com","category_code":"software","description":"eco-friendly datacenter software","total_money_raised":"$15M","city":"Burlington","country_code":"USA","coordinates":{"type":"Point","coordinates":[-71.1986329,42.4871509]}}
{"name":"Optify","founded_year":2008,"homepage_url":"http:\/\/www.optify.net","category_code":"software","description":"Digital Marketing Software","total_money_raised":"$10.8M","city":"Seattle","country_code":"USA","coordinates":{"type":"Point","coordinates":[-122.333359,47.603364]}}
{"name":"IGLOO Software","founded_year":2008,"homepage_url":"http:\/\/www.IGLOOSoftware.com","category_code":"software","description":"Enterprise Social Networking (ESN)","total_money_raised":"$9M","city":"Kitchener","country_code":"CAN","coordinates":{"type":"Point","coordinates":[-80.487328,43.4496954]}}
{"name":"Evostor","founded_year":2007,"homepage_url":"http:\/\/virsto.com","category_code":"software","description":"Storage software","total_money_raised":"$8M","city":"Campbell","country_code":"USA","coordinates":{"type":"Point","coordinates":[-121.964385,37.232902]}}
{"name":"Jama Software","founded_year":2007,"homepage_url":"http:\/\/www.jamasoftware.com","category_code":"software","description":"Enterprise: Product Delivery Platform","total_money_raised":"$13M","city":"Portland","country_code":"USA","coordinates":{"type":"Point","coordinates":[-122.68038,45.5309644]}}
{"name":"iPharro Media","founded_year":2007,"homepage_url":"http:\/\/www.ipharro.com","category_code":"software","description":"Content identification solutions ","total_money_raised":"$5.18M","city":"Darmstadt","country_code":"DEU","coordinates":{"type":"Point","coordinates":[8.6605881,49.8740096]}}
{"name":"Rebit","founded_year":2007,"homepage_url":"http:\/\/www.rebit.com","category_code":"software","description":"Backup hardware and software","total_money_raised":"$6.7M","city":"Longmont","country_code":"USA","coordinates":{"type":"Point","coordinates":[-105.1350397,40.146898]}}
{"name":"SpaBooker","founded_year":2007,"homepage_url":"http:\/\/www.spa-booker.com","category_code":"software","description":"Online Reservations and Point-of-Sale","total_money_raised":"$14.7M","city":"New York","country_code":"USA","coordinates":{"type":"Point","coordinates":[-73.987199,40.738567]}}
{"name":"SCVNGR","founded_year":2008,"homepage_url":"http:\/\/www.scvngr.com","category_code":"games_video","description":"part game, part game platform","total_money_raised":"$40.8M","city":"Boston","country_code":"USA","coordinates":{"type":"Point","coordinates":[-71.0680027,42.3406534]}}
{"name":"Snipi","founded_year":2007,"homepage_url":"http:\/\/www.snipi.com","category_code":"ecommerce","description":"","total_money_raised":"$4.03M","city":"Philadelphia","country_code":"USA","coordinates":{"type":"Point","coordinates":[-75.1618758,39.9502045]}}
{"name":"GameChanger Media","founded_year":2009,"homepage_url":"http:\/\/www.gameChanger.io","category_code":"software","description":"Digital platform for amateur sports.","total_money_raised":"$3.64M","city":"New York","country_code":"USA","coordinates":{"type":"Point","coordinates":[-74.0136605,40.7078343]}}
{"name":"Z2Live","founded_year":2009,"homepage_url":"http:\/\/www.z2live.com","category_code":"games_video","description":"Mobile Games","total_money_raised":"$6.5M","city":"Seattle","country_code":"USA","coordinates":{"type":"Point","coordinates":[-122.3399782,47.6103008]}}
{"name":"Tongal","founded_year":2009,"homepage_url":"http:\/\/www.tongal.com","category_code":"web","description":"Creative Network","total_money_raised":"$16M","city":"Santa Monica","country_code":"USA","coordinates":{"type":"Point","coordinates":[-118.489748,34.007112]}}
{"name":"Ranker","founded_year":2008,"homepage_url":"http:\/\/www.ranker.com","category_code":"web","description":"Crowdsourced rankings","total_money_raised":"$5.1M","city":"Los Angeles","country_code":"USA","coordinates":{"type":"Point","coordinates":[-118.325739,34.1012181]}}
{"name":"HealthEngine","founded_year":2007,"homepage_url":"http:\/\/healthengine.com.au","category_code":"web","description":"Health professional search engine","total_money_raised":"$10.4M","city":"Perth","country_code":"AUS","coordinates":{"type":"Point","coordinates":[115.89084,-31.97822]}}
{"name":"qcue","founded_year":2007,"homepage_url":"http:\/\/qcue.net","category_code":"software","description":"Dynamic Pricing Solutions","total_money_raised":"$1.13M","city":"Austin","country_code":"USA","coordinates":{"type":"Point","coordinates":[-97.735768,30.396989]}}
{"name":"Newser","founded_year":2007,"homepage_url":"http:\/\/www.newser.com","category_code":"web","description":"Online News Aggregator","total_money_raised":"$2.5M","city":"Chicago","country_code":"USA","coordinates":{"type":"Point","coordinates":[-87.624333,41.879535]}}
{"name":"betaworks","founded_year":2007,"homepage_url":"http:\/\/www.betaworks.com","category_code":"social","description":"Business Accelerator","total_money_raised":"$41.8M","city":"New York","country_code":"USA","coordinates":{"type":"Point","coordinates":[-74.00721,40.74034]}}
{"name":"Smallaa","founded_year":2008,"homepage_url":"http:\/\/www.smallaa.com","category_code":"web","description":"Track Your Interests","total_money_raised":"$3M","city":"San Jose","country_code":"USA","coordinates":{"type":"Point","coordinates":[-121.928393,37.39458]}}
{"name":"Brandsclub","founded_year":2009,"homepage_url":"http:\/\/www.brandsclub.com.br","category_code":"ecommerce","description":"Private Sales Club","total_money_raised":"$17M","city":"Sao Paulo","country_code":"BRA","coordinates":{"type":"Point","coordinates":[-46.6388182,-23.5489433]}}
{"name":"HootSuite","founded_year":2008,"homepage_url":"http:\/\/www.hootsuite.com","category_code":"social","description":"Social Media Management System","total_money_raised":"$190M","city":"Vancouver","country_code":"CAN","coordinates":{"type":"Point","coordinates":[-123.0952381,49.2851733]}}
{"name":"Basho Technologies","founded_year":2007,"homepage_url":"http:\/\/www.basho.com","category_code":"software","description":"Distributed Database and Cloud Storage ","total_money_raised":"$29.9M","city":"Cambridge","country_code":"USA","coordinates":{"type":"Point","coordinates":[-71.092285,42.365867]}}
{"name":"Phurnace Software","founded_year":2007,"homepage_url":"http:\/\/www.bmc.com\/products\/product-listing\/bmc-bladelogic-application-release-automation.html","category_code":"software","description":"Java EE configuration","total_money_raised":"$10M","city":"Austin","country_code":"USA","coordinates":{"type":"Point","coordinates":[-97.748623,30.271393]}}
{"name":"WEEZEVENT","founded_year":2008,"homepage_url":"http:\/\/www.weezevents.com","category_code":"ecommerce","description":"Online event registration service","total_money_raised":"\u20ac1.1M","city":"Paris","country_code":"FRA","coordinates":{"type":"Point","coordinates":[2.4476331,48.8952712]}}
{"name":"Smash Technologies","founded_year":2007,"homepage_url":"http:\/\/www.smashcode.com","category_code":"mobile","description":"SMS ","total_money_raised":"$1.35M","city":"Pittsburgh,","country_code":"USA","coordinates":{"type":"Point","coordinates":[-79.9707345,40.4290508]}}
{"name":"Busca Corp","founded_year":2007,"homepage_url":"http:\/\/www.buscacorp.com","category_code":"games_video","description":"Spanish-speaking Entertainment Network","total_money_raised":"$5M","city":"La Jolla","country_code":"USA","coordinates":{"type":"Point","coordinates":[-117.274602,32.841791]}}
{"name":"Milo","founded_year":2008,"homepage_url":"http:\/\/milo.com","category_code":"web","description":"Local Shopping","total_money_raised":"$4.95M","city":"Palo Alto","country_code":"USA","coordinates":{"type":"Point","coordinates":[-122.163352,37.444531]}}
{"name":"Kidlandia","founded_year":2008,"homepage_url":"http:\/\/kidlandia.yolasite.com","category_code":"web","description":"","total_money_raised":"$3.23M","city":"SAN FRANCISCO","country_code":"USA","coordinates":{"type":"Point","coordinates":[-122.4043215,37.8017938]}}
{"name":"textPlus","founded_year":2007,"homepage_url":"http:\/\/textplus.com","category_code":"mobile","description":"Creators of textPlus","total_money_raised":"$46.3M","city":"Marina del Rey","country_code":"USA","coordinates":{"type":"Point","coordinates":[-118.43679,33.984469]}}
{"name":"Servo Software","founded_year":2008,"homepage_url":"http:\/\/www.getservo.com","category_code":"software","description":"Wireless software provider","total_money_raised":"$3.01M","city":"San Mateo","country_code":"USA","coordinates":{"type":"Point","coordinates":[-122.292146,37.552262]}}
{"name":"ColdLight Solutions","founded_year":2007,"homepage_url":"http:\/\/www.coldlight.com","category_code":"software","description":"SaaS-based Prescriptive Intelligence","total_money_raised":"$11M","city":"Wayne","country_code":"USA","coordinates":{"type":"Point","coordinates":[-75.42402,40.075096]}}
{"name":"Fotomoto","founded_year":2008,"homepage_url":"http:\/\/www.fotomoto.com","category_code":"ecommerce","description":"Sell photos online on your website","total_money_raised":"$1.82M","city":"San Francisco","country_code":"USA","coordinates":{"type":"Point","coordinates":[-122.3948712,37.7795014]}}
{"name":"VKernel Corporation","founded_year":2007,"homepage_url":"http:\/\/www.vkernel.com","category_code":"software","description":"virtualization management software","total_money_raised":"$7M","city":"Boston","country_code":"USA","coordinates":{"type":"Point","coordinates":[-71.0491901,42.3497366]}}
{"name":"Shareaholic","founded_year":2009,"homepage_url":"http:\/\/www.shareaholic.com","category_code":"web","description":"content sharing and discovery platform","total_money_raised":"$5.46M","city":"Boston","country_code":"USA","coordinates":{"type":"Point","coordinates":[-71.1032591,42.3647559]}}
{"name":"Sand 9","founded_year":2007,"homepage_url":"http:\/\/www.sand9.com","category_code":"mobile","description":"Nano-resonator Technology","total_money_raised":"$70.2M","city":"Cambridge","country_code":"USA","coordinates":{"type":"Point","coordinates":[-71.1068046,42.3488891]}}
{"name":"Playdom","founded_year":2008,"homepage_url":"http:\/\/www.playdom.com","category_code":"games_video","description":"Gaming network","total_money_raised":"$76M","city":"Palo Alto","country_code":"USA","coordinates":{"type":"Point","coordinates":[-122.076747,37.393536]}}
{"name":"Veeva","founded_year":2007,"homepage_url":"http:\/\/www.veeva.com","category_code":"software","description":"Cloud-based business solutions","total_money_raised":"$4M","city":"Pleasanton","country_code":"USA","coordinates":{"type":"Point","coordinates":[-121.900722,37.69249]}}
{"name":"The Resumator","founded_year":2009,"homepage_url":"http:\/\/www.theresumator.com","category_code":"software","description":"SaaS Recruiting Software","total_money_raised":"$2.98M","city":"Pittsburgh","country_code":"USA","coordinates":{"type":"Point","coordinates":[-80.001933,40.438423]}}
{"name":"Noomeo","founded_year":2007,"homepage_url":"http:\/\/www.noomeo.eu","category_code":"software","description":"3D made easy","total_money_raised":"$1.63M","city":"Lab\u00e8ge","country_code":"FRA","coordinates":{"type":"Point","coordinates":[1.3168395,47.5974286]}}
{"name":"Sofa Labs","founded_year":2009,"homepage_url":"http:\/\/thread.com","category_code":"social","description":"Social Applications Developer","total_money_raised":"$1.2M","city":"San Mateo","country_code":"USA","coordinates":{"type":"Point","coordinates":[-122.3229235,37.5646055]}}
{"name":"OutSmart Power Systems","founded_year":2008,"homepage_url":"http:\/\/www.outsmartinc.com","category_code":"hardware","description":"Building, equipment, network management","total_money_raised":"$9.91M","city":"Natick","country_code":"USA","coordinates":{"type":"Point","coordinates":[-71.3876282,42.2968126]}}
{"name":"ShopSavvy","founded_year":2008,"homepage_url":"http:\/\/shopsavvy.com","category_code":"mobile","description":"","total_money_raised":"$11.5M","city":"San Francsico","country_code":"USA","coordinates":{"type":"Point","coordinates":[-122.3966273,37.7770719]}}
{"name":"Althea Systems","founded_year":2009,"homepage_url":"http:\/\/www.altheasystems.com","category_code":"hardware","description":"Internet TV startup","total_money_raised":"$3M","city":"Bangalore","country_code":"IND","coordinates":{"type":"Point","coordinates":[77.6136847,12.9349604]}}
{"name":"Ykone","founded_year":2009,"homepage_url":"http:\/\/ykone.com","category_code":"web","description":"Social media site for fashion","total_money_raised":"\u20ac1.5M","city":"Paris","country_code":"FRA","coordinates":{"type":"Point","coordinates":[2.3509871,48.8566667]}}
{"name":"IdeaPaint","founded_year":2008,"homepage_url":"http:\/\/www.ideapaint.com","category_code":"ecommerce","description":"","total_money_raised":"$13.3M","city":"Cambridge","country_code":"USA","coordinates":{"type":"Point","coordinates":[-71.0771871,42.3694815]}}
{"name":"Moviepilot","founded_year":2007,"homepage_url":"http:\/\/www.moviepilot.com","category_code":"web","description":"Personalized movie recommendation","total_money_raised":"$7M","city":"Berlin","country_code":"DEU","coordinates":{"type":"Point","coordinates":[13.398504,52.4947266]}}
{"name":"Layar","founded_year":2009,"homepage_url":"http:\/\/layar.com","category_code":"mobile","description":"Augmented Reality","total_money_raised":"$13.4M","city":"Amsterdam","country_code":"NLD","coordinates":{"type":"Point","coordinates":[4.8928722,52.3657578]}}
{"name":"Global Fitness Media","founded_year":2007,"homepage_url":"http:\/\/www.fitorbit.com","category_code":"web","description":"Online Personal Training Dashboard","total_money_raised":"$3.2M","city":"Los Angeles","country_code":"USA","coordinates":{"type":"Point","coordinates":[-118.462876,34.054318]}}
{"name":"ticketea","founded_year":2010,"homepage_url":"http:\/\/www.ticketea.com","category_code":"ecommerce","description":"Online event management platform","total_money_raised":"$5.73M","city":"Madrid","country_code":"ESP","coordinates":{"type":"Point","coordinates":[-3.7061764,40.4455155]}}
{"name":"VendAsta","founded_year":2008,"homepage_url":"http:\/\/www.vendasta.com","category_code":"software","description":"","total_money_raised":"C$11.3M","city":"Saskatoon","country_code":"CAN","coordinates":{"type":"Point","coordinates":[-106.6634565,52.143886]}}
{"name":"CrowdGather","founded_year":2008,"homepage_url":"http:\/\/www.crowdgather.com","category_code":"web","description":"Network of Online Forum Communities","total_money_raised":"$18M","city":"Woodland Hills","country_code":"USA","coordinates":{"type":"Point","coordinates":[-118.575293,34.168955]}}
{"name":"Omni-ID","founded_year":2007,"homepage_url":"http:\/\/www.omni-id.com","category_code":"hardware","description":"passive UHF RFID tags","total_money_raised":"$23M","city":"Foster City","country_code":"USA","coordinates":{"type":"Point","coordinates":[-122.270487,37.561111]}}
{"name":"Mobiles Republic","founded_year":2008,"homepage_url":"http:\/\/mobilesrepublic.com","category_code":"mobile","description":"We publish valuable & personal news apps","total_money_raised":"$9M","city":"Bordeaux Cedex","country_code":"FRA","coordinates":{"type":"Point","coordinates":[-0.5754294,44.8743952]}}
{"name":"High Gear Media","founded_year":2008,"homepage_url":"http:\/\/www.highgearmedia.com","category_code":"web","description":"Automotive digital media","total_money_raised":"$12M","city":"Menlo Park","country_code":"USA","coordinates":{"type":"Point","coordinates":[-122.15833,37.445335]}}
{"name":"ChallengePost","founded_year":2009,"homepage_url":"http:\/\/www.challengepost.com","category_code":"web","description":"Software challenges and hackathons","total_money_raised":"$4.6M","city":"New York","country_code":"USA","coordinates":{"type":"Point","coordinates":[-74.00717,40.7408042]}}
{"name":"StyleCaster","founded_year":2008,"homepage_url":"http:\/\/www.stylecaster.com","category_code":"web","description":"Media and Ad-Tech for fashion & beauty","total_money_raised":"$5M","city":"New York City","country_code":"USA","coordinates":{"type":"Point","coordinates":[-73.9900984,40.7450497]}}
{"name":"Grain Management","founded_year":2007,"homepage_url":"http:\/\/graingp.com","category_code":"mobile","description":"Communications Equipment","total_money_raised":"$20M","city":"Sarasota","country_code":"USA","coordinates":{"type":"Point","coordinates":[-82.5309605,27.3372319]}}
{"name":"Teambox","founded_year":2009,"homepage_url":"http:\/\/www.teambox.com","category_code":"web","description":"Collaboration and file sharing","total_money_raised":"$6.75M","city":"Barcelona","country_code":"ESP","coordinates":{"type":"Point","coordinates":[2.1920231,41.4063346]}}
{"name":"Testplant","founded_year":2008,"homepage_url":"http:\/\/www.testplant.com","category_code":"software","description":"GUI test tool","total_money_raised":"$2.56M","city":"London","country_code":"GBR","coordinates":{"type":"Point","coordinates":[-0.1037742,51.517356]}}
{"name":"Culture Jam","founded_year":2008,"homepage_url":"http:\/\/site.promojam.com","category_code":"web","description":"Innovative Social Media Technology ","total_money_raised":"$1.7M","city":"Los Angeles","country_code":"USA","coordinates":{"type":"Point","coordinates":[-118.4660597,34.0137151]}}
{"name":"Continuity Engine","founded_year":2008,"homepage_url":"http:\/\/www.continuity.net","category_code":"software","description":"Crowdsource Banking","total_money_raised":"$7.84M","city":"New Haven","country_code":"USA","coordinates":{"type":"Point","coordinates":[-73.2435522,41.3279176]}}
{"name":"Tiny Speck","founded_year":2009,"homepage_url":"http:\/\/tinyspeck.com","category_code":"games_video","description":"","total_money_raised":"$17.2M","city":"Vancouver","country_code":"CAN","coordinates":{"type":"Point","coordinates":[-123.109217,49.2824551]}}
{"name":"Getyoo","founded_year":2009,"homepage_url":"http:\/\/www.getyoo.com","category_code":"mobile","description":"NFC Events Solutions","total_money_raised":"\u20ac1.13M","city":"Brussels","country_code":"BEL","coordinates":{"type":"Point","coordinates":[4.3464721,50.83997]}}